{
    "climate": [
        {
            "city": "EL TAMBO",
            "description": "El Tambo es una zona agr\u00edcola importante con producci\u00f3n de frutas, verduras y flores debido a su clima favorable.",
            "precipitation": 2.4078784119106698,
            "maxt": 20.12153846153846,
            "mint": 4.239888337468982,
            "lon": -75.214703,
            "lat": -12.059247,
            "meta": "attributes: city, description, precipitation (mm), maxt (C), mint (C), lon, lat"
        },
        {
            "city": "HUACHAC",
            "description": "Huachac cuenta con un clima templado y es conocida por la producci\u00f3n de papa y otros tub\u00e9rculos.",
            "precipitation": -2.700074682598955,
            "maxt": 14.708364451082897,
            "mint": -0.45526512322628854,
            "lon": -75.214703,
            "lat": -12.059247,
            "meta": "attributes: city, description, precipitation (mm), maxt (C), mint (C), lon, lat"
        },
        {
            "city": "JAUJA",
            "description": "Jauja es conocida por su clima templado y suelos f\u00e9rtiles, ideales para el cultivo de papa, ma\u00edz y hortalizas.",
            "precipitation": -0.47149046793760846,
            "maxt": 16.42261698440208,
            "mint": 0.34314079422382643,
            "lon": -75.484053,
            "lat": -11.774541,
            "meta": "attributes: city, description, precipitation (mm), maxt (C), mint (C), lon, lat"
        },
        {
            "city": "RICRAN",
            "description": "Ricran es una zona con clima variado, adecuada para la agricultura de subsistencia y cultivos de cereales.",
            "precipitation": 2.452915632754342,
            "maxt": 13.487983870967742,
            "mint": 3.296401985111663,
            "lon": -75.521856,
            "lat": -11.541854,
            "meta": "attributes: city, description, precipitation (mm), maxt (C), mint (C), lon, lat"
        },
        {
            "city": "SANTA ROSA DE OCOPA",
            "description": "Santa Rosa de Ocopa tiene un clima fresco y h\u00famedo, ideal para el cultivo de caf\u00e9 y otros productos agr\u00edcolas.",
            "precipitation": 2.359584367245658,
            "maxt": 18.703473945409428,
            "mint": 4.470595533498759,
            "lon": -75.297825,
            "lat": -11.877194,
            "meta": "attributes: city, description, precipitation (mm), maxt (C), mint (C), lon, lat"
        },
        {
            "city": "VIQUES",
            "description": "Viques tiene un clima variado con temporadas de lluvia, adecuado para la agricultura de subsistencia y cultivos de cereales.",
            "precipitation": 2.434739454094293,
            "maxt": 20.49844913151365,
            "mint": 6.134119106699752,
            "lon": -75.231618,
            "lat": -12.159793,
            "meta": "attributes: city, description, precipitation (mm), maxt (C), mint (C), lon, lat"
        }
    ]
}